[
  {
    "row_index": 0,
    "input": {
      "name": "Beijing Zing Found Network Co.ltd",
      "address": "Building 3 Room 11c, No. 31 Zizhu Yuan Road",
      "city": "Beijing",
      "state": "BEIJING",
      "country": "CN",
      "postal_code": "100089"
    },
    "queries": {
      "q_name": "Beijing Zing Found Network",
      "q_name_geo": "Beijing, China",
      "q_full_addr": "Building 3 Room 11c, No. 31 Zizhu Yuan Road, Beijing, 100089, China"
    },
    "timing_ms": 11963,
    "success": false,
    "message": "The tools summary does not mention any organization related to 'Beijing Zing Found Network Co.ltd'.",
    "public_presence": false,
    "websites": [],
    "evidence_count": 0,
    "notes": "The tools summary does not mention any organization related to 'Beijing Zing Found Network Co.ltd'.",
    "enriched_mdm": {}
  },
  {
    "row_index": 1,
    "input": {
      "name": "Engineered Services (australia) Pty. Limited",
      "address": "3/f Plaza Chambers",
      "city": "Springwood",
      "state": "QLD",
      "country": "AU",
      "postal_code": "4127"
    },
    "queries": {
      "q_name": "Engineered Services",
      "q_name_geo": "Engineered Services Springwood QLD",
      "q_full_addr": "3/F Plaza Chambers, Springwood, QLD 4127, Australia"
    },
    "timing_ms": 11668,
    "success": false,
    "message": "No results from the tools directly reference 'Engineered Services (australia) Pty. Limited' or provide relevant information about the organization.",
    "public_presence": false,
    "websites": [],
    "evidence_count": 0,
    "notes": "No results from the tools directly reference 'Engineered Services (australia) Pty. Limited' or provide relevant information about the organization.",
    "enriched_mdm": {}
  },
  {
    "row_index": 2,
    "input": {
      "name": "No.6 Mechanical Design & Research Institute",
      "address": "Shàngbùzhōnglù",
      "city": "Shēnzhènshì",
      "state": "GUǍNGDŌNGSHĚNG",
      "country": "CN",
      "postal_code": "518027"
    },
    "queries": {
      "q_name": "No.6 Mechanical Design & Research Institute",
      "q_name_geo": "No.6 Mechanical Design & Research Institute, Shenzhen, Guangdong, China",
      "q_full_addr": "No.6 Mechanical Design & Research Institute, Shàngbùzhōnglù, Shenzhen, Guangdong, 518027, China"
    },
    "timing_ms": 10962,
    "success": false,
    "message": "No direct matches found for the input company in the tool results.",
    "public_presence": false,
    "websites": [],
    "evidence_count": 0,
    "notes": "No direct matches found for the input company in the tool results.",
    "enriched_mdm": {}
  },
  {
    "row_index": 3,
    "input": {
      "name": "Bas Engineering Limited",
      "address": "6/F., PARAMOUNT BUILDING, 12 KA YIP STREET",
      "city": "HONG KONG",
      "state": "HONG KONG",
      "country": "CN",
      "postal_code": "-"
    },
    "queries": {
      "q_name": "Bas Engineering Limited",
      "q_name_geo": "Bas Engineering Limited, Hong Kong",
      "q_full_addr": "6/F, Paramount Building, 12 Ka Yip Street, Hong Kong"
    },
    "timing_ms": 27851,
    "success": true,
    "message": "OK",
    "public_presence": true,
    "websites": [
      "http://www.bashk.com/template?series=38",
      "https://www.southa.com/en/about-us/company-structure/bas-engineering-limited",
      "https://www.builderhk.com/app/listing-detail.php?q=22800560&l=en",
      "http://www.bashk.com/"
    ],
    "evidence_count": 9,
    "notes": "The company name and address were confirmed through multiple Tavily sources, providing a strong match.",
    "enriched_mdm": {
      "canonical_name": "BAS Engineering Limited",
      "aka": [],
      "address": "Room 708, Paramount Building, 12 Ka Yip Street",
      "city": "Chai Wan",
      "state": "HONG KONG",
      "postal_code": "",
      "country": "HK",
      "lat": null,
      "lon": null,
      "websites": [
        "http://www.bashk.com/template?series=38",
        "https://www.southa.com/en/about-us/company-structure/bas-engineering-limited",
        "https://www.builderhk.com/app/listing-detail.php?q=22800560&l=en",
        "http://www.bashk.com/"
      ],
      "ids": {},
      "confidence": 0.75
    }
  },
  {
    "row_index": 4,
    "input": {
      "name": "北京华力豪顺科技公司",
      "address": "工行北京长安分理处, .",
      "city": "BEIJING",
      "state": "CHINA",
      "country": "CN",
      "postal_code": "."
    },
    "queries": {
      "q_name": "华力豪顺科技",
      "q_name_geo": "华力豪顺科技, 北京, 中国",
      "q_full_addr": "工行北京长安分理处, 北京, 中国"
    },
    "timing_ms": 15632,
    "success": false,
    "message": "The queries do not provide sufficient evidence to confirm they refer to the same organization as the input company.",
    "public_presence": false,
    "websites": [],
    "evidence_count": 0,
    "notes": "The queries do not provide sufficient evidence to confirm they refer to the same organization as the input company.",
    "enriched_mdm": {}
  },
  {
    "row_index": 5,
    "input": {
      "name": "施耐德电气中国投资有限公司",
      "address": "中国工商银行北京经济技术开发区, 支行营业室",
      "city": "BEIJING",
      "state": "CHINA",
      "country": "CN",
      "postal_code": "."
    },
    "queries": {
      "q_name": "施耐德电气中国投资有限公司",
      "q_name_geo": "施耐德电气中国投资有限公司, 北京, 中国",
      "q_full_addr": "北京市经济技术开发区中国工商银行支行营业室"
    },
    "timing_ms": 76259,
    "success": false,
    "message": "Merge returned empty or failed.",
    "public_presence": true,
    "websites": [],
    "evidence_count": 0,
    "notes": "merge_llm_json_error",
    "enriched_mdm": {}
  },
  {
    "row_index": 6,
    "input": {
      "name": "中国金山联合贸易有限责任公司",
      "address": "中行金山支行石化分理处, .",
      "city": "SHANGHAI",
      "state": "CHINA",
      "country": "CN",
      "postal_code": "."
    },
    "queries": {
      "q_name": "中国金山联合贸易有限责任公司",
      "q_name_geo": "中国金山联合贸易有限公司, 上海",
      "q_full_addr": "中行金山支行石化分理处, 上海, 中国"
    },
    "timing_ms": 27405,
    "success": true,
    "message": "OK",
    "public_presence": true,
    "websites": [],
    "evidence_count": 4,
    "notes": "The company name and address were confirmed through multiple sources, providing a good level of confidence.; dropped_unverified: websites",
    "enriched_mdm": {
      "canonical_name": "中国金山联合贸易有限责任公司",
      "aka": [],
      "address": "金山区金一东路1号金山宾馆南8楼",
      "city": "上海市",
      "state": "",
      "postal_code": "",
      "country": "中国",
      "lat": null,
      "lon": null,
      "websites": [],
      "ids": {},
      "confidence": 0.75
    }
  },
  {
    "row_index": 7,
    "input": {
      "name": "能殷自动化贸易(深圳)有限公司",
      "address": "深圳市招商银行总行营业部, .",
      "city": "SHENZHEN",
      "state": "CHINA",
      "country": "CN",
      "postal_code": "."
    },
    "queries": {
      "q_name": "能殷自动化贸易",
      "q_name_geo": "能殷自动化贸易 深圳",
      "q_full_addr": "深圳市招商银行总行营业部"
    },
    "timing_ms": 30005,
    "success": true,
    "message": "OK",
    "public_presence": true,
    "websites": [
      "http://www.nengyin.cn"
    ],
    "evidence_count": 6,
    "notes": "The company name and address were sourced from Tavily, providing a good match with multiple references.",
    "enriched_mdm": {
      "canonical_name": "能殷自动化贸易有限公司",
      "aka": [],
      "address": "深圳市上步中路工会大厦B座6楼西",
      "city": "深圳",
      "state": "",
      "postal_code": "581031",
      "country": "中国",
      "lat": null,
      "lon": null,
      "websites": [
        "http://www.nengyin.cn"
      ],
      "ids": {},
      "confidence": 0.75
    }
  },
  {
    "row_index": 8,
    "input": {
      "name": "天津市开发区泰达大厦房地产开发有限公司泰达俱乐部",
      "address": "天津商业银行协通支行, .",
      "city": "TIANJIN",
      "state": "CHINA",
      "country": "CN",
      "postal_code": "."
    },
    "queries": {
      "q_name": "泰达大厦房地产开发有限公司",
      "q_name_geo": "泰达大厦房地产开发有限公司, 天津",
      "q_full_addr": "天津商业银行协通支行, 天津, 中国"
    },
    "timing_ms": 14806,
    "success": false,
    "message": "No relevant results found that match the input company.",
    "public_presence": false,
    "websites": [],
    "evidence_count": 0,
    "notes": "No relevant results found that match the input company.",
    "enriched_mdm": {}
  },
  {
    "row_index": 9,
    "input": {
      "name": "Pacific Bridge, Inc.",
      "address": "1155 Connecticut Ave Nw",
      "city": "Washington",
      "state": "DC",
      "country": "US",
      "postal_code": "20036"
    },
    "queries": {
      "q_name": "Pacific Bridge Inc",
      "q_name_geo": "Pacific Bridge Inc, Washington, DC",
      "q_full_addr": "1155 Connecticut Ave NW, Washington, DC 20036, US"
    },
    "timing_ms": 29016,
    "success": true,
    "message": "OK",
    "public_presence": true,
    "websites": [],
    "evidence_count": 8,
    "notes": "Strong evidence from multiple sources confirming the company name, address, and location.; dropped_unverified: websites",
    "enriched_mdm": {
      "canonical_name": "Pacific Bridge, Inc",
      "aka": [],
      "address": "1155 Connecticut Ave NW",
      "city": "Washington",
      "state": "DC",
      "postal_code": "20036",
      "country": "United States",
      "lat": 38.9054596,
      "lon": -77.0406251,
      "websites": [],
      "ids": {},
      "confidence": 0.85
    }
  },
  {
    "row_index": 10,
    "input": {
      "name": "Shanghai North-power Electromechanical Instrument Complete Set Co Ltd",
      "address": "Rm 906, # 2 Building",
      "city": "Zhong Shan Bei Yi Road",
      "state": "SHANGHAI",
      "country": "CN",
      "postal_code": "200437"
    },
    "queries": {
      "q_name": "Shanghai North Power Electromechanical Instrument Complete Set Co Ltd",
      "q_name_geo": "Shanghai, China",
      "q_full_addr": "Rm 906, Building 2, Zhong Shan Bei Yi Road, Shanghai, 200437, China"
    },
    "timing_ms": 14029,
    "success": false,
    "message": "The tools summary does not provide any information about the specific organization 'Shanghai North-power Electromechanical Instrument Complete Set Co Ltd'.",
    "public_presence": false,
    "websites": [],
    "evidence_count": 0,
    "notes": "The tools summary does not provide any information about the specific organization 'Shanghai North-power Electromechanical Instrument Complete Set Co Ltd'.",
    "enriched_mdm": {}
  },
  {
    "row_index": 11,
    "input": {
      "name": "Dec Prc Limited Beijing Service Station",
      "address": "Office Tower,new Century Hotel F/5, No. 6 Nanwei Road Nan Alley",
      "city": "Beijing",
      "state": "BEIJING",
      "country": "CN",
      "postal_code": "100050"
    },
    "queries": {
      "q_name": "Dec Prc Limited",
      "q_name_geo": "Dec Prc Limited, Beijing",
      "q_full_addr": "Office Tower, New Century Hotel, Floor 5, No. 6 Nanwei Road, Nan Alley, Beijing, 100050, China"
    },
    "timing_ms": 12503,
    "success": false,
    "message": "No results from the tools directly reference or match the input company.",
    "public_presence": false,
    "websites": [],
    "evidence_count": 0,
    "notes": "No results from the tools directly reference or match the input company.",
    "enriched_mdm": {}
  },
  {
    "row_index": 12,
    "input": {
      "name": "北京纳威尔格质量咨询有限公司",
      "address": "分行西便门分理处",
      "city": "交行北京市",
      "state": "北京市",
      "country": "CN",
      "postal_code": "100031"
    },
    "queries": {
      "q_name": "纳威尔格",
      "q_name_geo": "纳威尔格 北京",
      "q_full_addr": "分行西便门分理处, 北京市, 100031, 中国"
    },
    "timing_ms": 39004,
    "success": true,
    "message": "OK",
    "public_presence": true,
    "websites": [],
    "evidence_count": 4,
    "notes": "The company name is confirmed from multiple sources, but the address and postal code are not explicitly found.; dropped_unverified: websites",
    "enriched_mdm": {
      "canonical_name": "纳威尔格（北京）管理咨询有限公司",
      "aka": [],
      "address": "",
      "city": "北京市",
      "state": "北京市",
      "postal_code": "",
      "country": "CN",
      "lat": null,
      "lon": null,
      "websites": [],
      "ids": {},
      "confidence": 0.75
    }
  },
  {
    "row_index": 13,
    "input": {
      "name": "Beria Consultants Ltd",
      "address": "2/F CONCORD COMMERCIAL BUILDING, 157 KING'S ROAD,",
      "city": "HONG KONG",
      "state": "HONG KONG",
      "country": "CN",
      "postal_code": "-"
    },
    "queries": {
      "q_name": "Beria Consultants Limited",
      "q_name_geo": "Beria Consultants Limited, Hong Kong",
      "q_full_addr": "2/F Concord Commercial Building, 157 King's Road, Hong Kong, HK"
    },
    "timing_ms": 28978,
    "success": true,
    "message": "OK",
    "public_presence": true,
    "websites": [
      "https://sourcing.hktdc.com/en/Supplier-Store-Directory/Beria-Consultants-Limited/1X08PGDB",
      "https://archello.com/brand/beria-consultants-ltd",
      "https://beria.com.hk/"
    ],
    "evidence_count": 6,
    "notes": "The canonical name and city were found in the Tavily sources. The country is inferred as CN based on the context of Hong Kong.",
    "enriched_mdm": {
      "canonical_name": "Beria Consultants Limited",
      "aka": [],
      "address": "",
      "city": "Hong Kong",
      "state": "",
      "postal_code": "",
      "country": "CN",
      "lat": null,
      "lon": null,
      "websites": [
        "https://sourcing.hktdc.com/en/Supplier-Store-Directory/Beria-Consultants-Limited/1X08PGDB",
        "https://archello.com/brand/beria-consultants-ltd",
        "https://beria.com.hk/"
      ],
      "ids": {},
      "confidence": 0.55
    }
  },
  {
    "row_index": 14,
    "input": {
      "name": "Growinet Ltd",
      "address": "SUTE 1900,TUNG WAH MANSION, 199-203 HENNESSY ROAD",
      "city": "HONG KONG",
      "state": "HONG KONG",
      "country": "CN",
      "postal_code": "-"
    },
    "queries": {
      "q_name": "Growinet Limited",
      "q_name_geo": "Growinet Limited, Hong Kong",
      "q_full_addr": "Suite 1900, Tung Wah Mansion, 199-203 Hennessy Road, Wan Chai, Hong Kong SAR"
    },
    "timing_ms": 26010,
    "success": true,
    "message": "OK",
    "public_presence": true,
    "websites": [
      "http://www.growinet.com.hk"
    ],
    "evidence_count": 6,
    "notes": "The company name and address were confirmed from Tavily, with a reliable website source.",
    "enriched_mdm": {
      "canonical_name": "Growinet Limited",
      "aka": [],
      "address": "RM 1902 19/F Tung Wah Mansion 199-203 Hennessy RD",
      "city": "Wan Chai",
      "state": "Hong Kong",
      "postal_code": "",
      "country": "Hong Kong (China)",
      "lat": null,
      "lon": null,
      "websites": [
        "http://www.growinet.com.hk"
      ],
      "ids": {},
      "confidence": 0.75
    }
  }
]