[
  {
    "row_index": 0,
    "input": {
      "name": "Beijing Zing Found Network Co.ltd",
      "address": "Building 3 Room 11c, No. 31 Zizhu Yuan Road",
      "city": "Beijing",
      "state": "BEIJING",
      "country": "CN",
      "postal_code": "100089"
    },
    "queries": {
      "q_name": "Beijing Zhongcan Foundation New Materials Co., Ltd.",
      "q_name_geo": "Beijing Zhongcan Foundation New Materials Co., Ltd., Beijing, CN",
      "q_full_addr": "F-224, No.86, Changyang Wanxing Road, Fangshan District, Beijing, CN, 100000"
    },
    "timing_ms": 5355,
    "success": false,
    "message": "The queried names and addresses do not match or closely relate to the input company.",
    "public_presence": false,
    "websites": [],
    "evidence_count": 0,
    "notes": "The queried names and addresses do not match or closely relate to the input company.",
    "enriched_mdm": {}
  },
  {
    "row_index": 1,
    "input": {
      "name": "Engineered Services (australia) Pty. Limited",
      "address": "3/f Plaza Chambers",
      "city": "Springwood",
      "state": "QLD",
      "country": "AU",
      "postal_code": "4127"
    },
    "queries": {
      "q_name": "ENGINEERING SERVICES AUSTRALIA PTY. LTD.",
      "q_name_geo": "ENGINEERING SERVICES AUSTRALIA PTY. LTD. Springwood QLD AU",
      "q_full_addr": "3/f Plaza Chambers, Springwood, QLD, 4127, AU"
    },
    "timing_ms": 5699,
    "success": false,
    "message": "The names are similar but not identical, and there is no strong evidence linking them to the same organization.",
    "public_presence": false,
    "websites": [],
    "evidence_count": 0,
    "notes": "The names are similar but not identical, and there is no strong evidence linking them to the same organization.",
    "enriched_mdm": {}
  },
  {
    "row_index": 2,
    "input": {
      "name": "No.6 Mechanical Design & Research Institute",
      "address": "Shàngbùzhōnglù",
      "city": "Shēnzhènshì",
      "state": "GUǍNGDŌNGSHĚNG",
      "country": "CN",
      "postal_code": "518027"
    },
    "queries": {
      "q_name": "Tianjin The Sixth Electrical Appliance Switch Plant (General Parternship)",
      "q_name_geo": "Tianjin The Sixth Electrical Appliance Switch Plant (General Parternship), Shēnzhènshì, GUǍNGDŌNGSHĚNG, CN",
      "q_full_addr": "No.5, Zhangxingzhuang North Road, Tianjin, 300402, CN"
    },
    "timing_ms": 6349,
    "success": false,
    "message": "The queried names and addresses do not match or refer to the same organization as the input company.",
    "public_presence": false,
    "websites": [],
    "evidence_count": 0,
    "notes": "The queried names and addresses do not match or refer to the same organization as the input company.",
    "enriched_mdm": {}
  },
  {
    "row_index": 3,
    "input": {
      "name": "Bas Engineering Limited",
      "address": "6/F., PARAMOUNT BUILDING, 12 KA YIP STREET",
      "city": "HONG KONG",
      "state": "HONG KONG",
      "country": "CN",
      "postal_code": "-"
    },
    "queries": {
      "q_name": "Xiamen Liansheng Business Management Co., Ltd.",
      "q_name_geo": "Xiamen Liansheng Business Management Co., Ltd., HONG KONG, CN",
      "q_full_addr": "35, 14F -1, Hangyun Building, No.809, Songyu M. Road, Xiamenpian District, China Pilot Free Trade Z, HONG KONG, CN"
    },
    "timing_ms": 5321,
    "success": false,
    "message": "The queried company is different from the input company, with no apparent connection.",
    "public_presence": false,
    "websites": [],
    "evidence_count": 0,
    "notes": "The queried company is different from the input company, with no apparent connection.",
    "enriched_mdm": {}
  },
  {
    "row_index": 4,
    "input": {
      "name": "北京华力豪顺科技公司",
      "address": "工行北京长安分理处, .",
      "city": "BEIJING",
      "state": "CHINA",
      "country": "CN",
      "postal_code": "."
    },
    "queries": {
      "q_name": "安徽力豪科技有限公司",
      "q_name_geo": "安徽力豪科技有限公司, 合肥, 安徽, CN",
      "q_full_addr": "蜀山区黄山路建业领翔2512室, 合肥, 安徽, 230000, CN"
    },
    "timing_ms": 5737,
    "success": false,
    "message": "The queried company names and addresses do not match or closely relate to the input company.",
    "public_presence": false,
    "websites": [],
    "evidence_count": 0,
    "notes": "The queried company names and addresses do not match or closely relate to the input company.",
    "enriched_mdm": {}
  },
  {
    "row_index": 5,
    "input": {
      "name": "施耐德电气中国投资有限公司",
      "address": "中国工商银行北京经济技术开发区, 支行营业室",
      "city": "BEIJING",
      "state": "CHINA",
      "country": "CN",
      "postal_code": "."
    },
    "queries": {
      "q_name": "施耐德电气(中国)投资有限公司",
      "q_name_geo": "施耐德电气(中国)投资有限公司 北京, CHINA",
      "q_full_addr": "朝阳区将台路2号和乔丽晶中心施耐德大厦, 北京, 130012, CN"
    },
    "timing_ms": 26418,
    "success": true,
    "message": "OK",
    "public_presence": true,
    "websites": [
      "http://www.schneider",
      "https://www.schneider-electric.cn/zh/about-us/contact-us/our-office/headquarters/"
    ],
    "evidence_count": 7,
    "notes": "Data was assembled strictly from the provided tool snippets, ensuring no inference or guessing.",
    "enriched_mdm": {
      "canonical_name": "施耐德电气（中国）投资有限公司",
      "aka": [],
      "address": "北京市朝阳区将台路2号和乔丽晶中心施耐德大厦",
      "city": "北京市",
      "state": "",
      "postal_code": "100016",
      "country": "中国",
      "lat": null,
      "lon": null,
      "websites": [
        "http://www.schneider",
        "https://www.schneider-electric.cn/zh/about-us/contact-us/our-office/headquarters/"
      ],
      "ids": {},
      "confidence": 1.0
    }
  },
  {
    "row_index": 6,
    "input": {
      "name": "中国金山联合贸易有限责任公司",
      "address": "中行金山支行石化分理处, .",
      "city": "SHANGHAI",
      "state": "CHINA",
      "country": "CN",
      "postal_code": "."
    },
    "queries": {
      "q_name": "中国金山联合贸易有限责任公司",
      "q_name_geo": "中国金山联合贸易有限责任公司, 上海, CN",
      "q_full_addr": "金山区金一东路1号金山宾馆南8楼, 200540, 上海, CN"
    },
    "timing_ms": 14813,
    "success": true,
    "message": "OK",
    "public_presence": true,
    "websites": [],
    "evidence_count": 6,
    "notes": "Data assembled from Tavily sources, providing reliable information about the company.; dropped_unverified: websites",
    "enriched_mdm": {
      "canonical_name": "中国金山联合贸易有限责任公司",
      "aka": [],
      "address": "金一东路1号金山宾馆南8楼",
      "city": "金山区",
      "state": "",
      "postal_code": "200540",
      "country": "CN",
      "lat": null,
      "lon": null,
      "websites": [],
      "ids": {
        "统一社会信用代码": "91310116132206027D"
      },
      "confidence": 1.0
    }
  },
  {
    "row_index": 7,
    "input": {
      "name": "能殷自动化贸易(深圳)有限公司",
      "address": "深圳市招商银行总行营业部, .",
      "city": "SHENZHEN",
      "state": "CHINA",
      "country": "CN",
      "postal_code": "."
    },
    "queries": {
      "q_name": "能殷自动化贸易(深圳)有限公司",
      "q_name_geo": "能殷自动化贸易(深圳)有限公司, 深圳, 广东, CN",
      "q_full_addr": "上步中路工会大厦B座6楼西, 深圳, 广东, 518031, CN"
    },
    "timing_ms": 13764,
    "success": true,
    "message": "OK",
    "public_presence": true,
    "websites": [
      "https://hw23099.sunmen.com/"
    ],
    "evidence_count": 7,
    "notes": "Data assembled from multiple Tavily sources confirming the company's name, address, city, state, postal code, and website.",
    "enriched_mdm": {
      "canonical_name": "能殷自动化贸易（深圳）有限公司",
      "aka": [],
      "address": "上步中路工会大厦B座6楼西",
      "city": "深圳",
      "state": "广东",
      "postal_code": "518031",
      "country": "CN",
      "lat": null,
      "lon": null,
      "websites": [
        "https://hw23099.sunmen.com/"
      ],
      "ids": {},
      "confidence": 0.0
    }
  },
  {
    "row_index": 8,
    "input": {
      "name": "天津市开发区泰达大厦房地产开发有限公司泰达俱乐部",
      "address": "天津商业银行协通支行, .",
      "city": "TIANJIN",
      "state": "CHINA",
      "country": "CN",
      "postal_code": "."
    },
    "queries": {
      "q_name": "天津泰达万通房地产开发有限公司",
      "q_name_geo": "天津泰达万通房地产开发有限公司, 天津, CHINA",
      "q_full_addr": "解放南路256号, 天津, 300100, CN"
    },
    "timing_ms": 6515,
    "success": false,
    "message": "The queried company name and the input company name refer to different entities despite both being in the real estate sector in Tianjin.",
    "public_presence": false,
    "websites": [],
    "evidence_count": 0,
    "notes": "The queried company name and the input company name refer to different entities despite both being in the real estate sector in Tianjin.",
    "enriched_mdm": {}
  },
  {
    "row_index": 9,
    "input": {
      "name": "Pacific Bridge, Inc.",
      "address": "1155 Connecticut Ave Nw",
      "city": "Washington",
      "state": "DC",
      "country": "US",
      "postal_code": "20036"
    },
    "queries": {
      "q_name": "America Votes",
      "q_name_geo": "America Votes, Washington, DC, US",
      "q_full_addr": "1155 Connecticut Ave NW Ste 600, Washington, DC, 20036, US"
    },
    "timing_ms": 5523,
    "success": false,
    "message": "The input company 'Pacific Bridge, Inc.' does not match the queries related to 'America Votes', which is a different organization focused on political advocacy.",
    "public_presence": false,
    "websites": [],
    "evidence_count": 0,
    "notes": "The input company 'Pacific Bridge, Inc.' does not match the queries related to 'America Votes', which is a different organization focused on political advocacy.",
    "enriched_mdm": {}
  },
  {
    "row_index": 10,
    "input": {
      "name": "Shanghai North-power Electromechanical Instrument Complete Set Co Ltd",
      "address": "Rm 906, # 2 Building",
      "city": "Zhong Shan Bei Yi Road",
      "state": "SHANGHAI",
      "country": "CN",
      "postal_code": "200437"
    },
    "queries": {
      "q_name": "Shanghai Jingming Electric Instrument Complete Set Co., Ltd.",
      "q_name_geo": "Shanghai Jingming Electric Instrument Complete Set Co., Ltd., Shanghai, CN",
      "q_full_addr": "No.8, Baziqiao Road, Jianghai Economic Park, Fengxian District, Shanghai, 201400, CN"
    },
    "timing_ms": 5155,
    "success": false,
    "message": "The queried names and addresses do not match or closely relate to the input company.",
    "public_presence": false,
    "websites": [],
    "evidence_count": 0,
    "notes": "The queried names and addresses do not match or closely relate to the input company.",
    "enriched_mdm": {}
  },
  {
    "row_index": 11,
    "input": {
      "name": "Dec Prc Limited Beijing Service Station",
      "address": "Office Tower,new Century Hotel F/5, No. 6 Nanwei Road Nan Alley",
      "city": "Beijing",
      "state": "BEIJING",
      "country": "CN",
      "postal_code": "100050"
    },
    "queries": {
      "q_name": "Instrimpex-dec Beijing Service Station",
      "q_name_geo": "Instrimpex-dec Beijing Service Station, Beijing, CN",
      "q_full_addr": "Floor 5, South Building, B3, Huayuan Road, Haidian District, Beijing, 100083, CN"
    },
    "timing_ms": 5632,
    "success": false,
    "message": "The queried names and addresses do not match the input company, indicating they refer to different organizations.",
    "public_presence": false,
    "websites": [],
    "evidence_count": 0,
    "notes": "The queried names and addresses do not match the input company, indicating they refer to different organizations.",
    "enriched_mdm": {}
  },
  {
    "row_index": 12,
    "input": {
      "name": "北京纳威尔格质量咨询有限公司",
      "address": "分行西便门分理处",
      "city": "交行北京市",
      "state": "北京市",
      "country": "CN",
      "postal_code": "100031"
    },
    "queries": {
      "q_name": "纳威尔格(北京)管理咨询有限公司",
      "q_name_geo": "纳威尔格(北京)管理咨询有限公司 北京",
      "q_full_addr": "西城区宣武门西大街甲129号金隅大厦1218室, 北京, 100031, CN"
    },
    "timing_ms": 14950,
    "success": true,
    "message": "OK",
    "public_presence": true,
    "websites": [
      "https://www.tianyancha.com/company/24640547",
      "https://www.yqsite.com/case/7120102010.html",
      "https://www.tianyancha.com/company/24641280",
      "https://www.taoke.com/company/1630.htm",
      "https://m.zhipin.com/gongsi/l014109748.html"
    ],
    "evidence_count": 11,
    "notes": "Data assembled from Tavily sources, providing a clear address and company name.",
    "enriched_mdm": {
      "canonical_name": "纳威尔格（北京）管理咨询有限公司",
      "aka": [],
      "address": "西城区宣武门西大街甲129号1218室",
      "city": "北京市",
      "state": "北京市",
      "postal_code": "100031",
      "country": "CN",
      "lat": null,
      "lon": null,
      "websites": [
        "https://www.tianyancha.com/company/24640547",
        "https://www.yqsite.com/case/7120102010.html",
        "https://www.tianyancha.com/company/24641280",
        "https://www.taoke.com/company/1630.htm",
        "https://m.zhipin.com/gongsi/l014109748.html"
      ],
      "ids": {},
      "confidence": 0.0
    }
  },
  {
    "row_index": 13,
    "input": {
      "name": "Beria Consultants Ltd",
      "address": "2/F CONCORD COMMERCIAL BUILDING, 157 KING'S ROAD,",
      "city": "HONG KONG",
      "state": "HONG KONG",
      "country": "CN",
      "postal_code": "-"
    },
    "queries": {
      "q_name": "Burqin County Chonghuer Town Chunmei Vegetables Plantation Specialty Cooperative",
      "q_name_geo": "Burqin County Chonghuer Town Chunmei Vegetables Plantation Specialty Cooperative, Altay Prefecture, CN",
      "q_full_addr": "Kuxugen Village, Chonghuer Town, Burqin County, 836300, CN"
    },
    "timing_ms": 4096,
    "success": false,
    "message": "The input company and the queries refer to entirely different entities and locations.",
    "public_presence": false,
    "websites": [],
    "evidence_count": 0,
    "notes": "The input company and the queries refer to entirely different entities and locations.",
    "enriched_mdm": {}
  },
  {
    "row_index": 14,
    "input": {
      "name": "Growinet Ltd",
      "address": "SUTE 1900,TUNG WAH MANSION, 199-203 HENNESSY ROAD",
      "city": "HONG KONG",
      "state": "HONG KONG",
      "country": "CN",
      "postal_code": "-"
    },
    "queries": {
      "q_name": "Nantong Growi Co., Ltd.",
      "q_name_geo": "Nantong Growi Co., Ltd., HONG KONG, CN",
      "q_full_addr": "No.8, Changqing Road, The Summit, Economic Development Zone, 226010, CN"
    },
    "timing_ms": 7094,
    "success": false,
    "message": "The queried names and addresses do not match or closely relate to Growinet Ltd.",
    "public_presence": false,
    "websites": [],
    "evidence_count": 0,
    "notes": "The queried names and addresses do not match or closely relate to Growinet Ltd.",
    "enriched_mdm": {}
  }
]